{
  "banks": [
    {
      "id": 0,
      "title": "Ամերիաբանկ",
      "logoUrl": "/assets/banks/ameria_logo.jpeg",
      "coverUrl": "/assets/banks/cover/ameria-cover.png",
      "general_address": {
        "name": "18, 3 Amiryan St, Yerevan 0002",
        "branch_type": "bank",
        "lat": "",
        "lng": ""
      },
      "open_hours": "9:30AM- 6PM",
      "phone_number": "060 616100",
      "web_link": "http://www.ameriabank.am",
      "bank_branches": [
        {
          "id": 0,
          "branch_type": "bank",
          "address_name": "Amiryan  18/3 , Yerevan",
          "city": "Cambridge",
          "state": "MA",
          "long": -71.10858,
          "lat": 42.35963
        },
        {
          "id": 1,
          "branch_type": "atm",
          "address_name": "Abovyan 6, Yerevan",
          "city": "Cambridge",
          "state": "MA",
          "long": -71.10869,
          "lat": 42.359103
        },
        {
          "id": 2,
          "branch_type": "bank",
          "address_name": "Komitas 38/2, Yerevan",
          "city": "Boston",
          "state": "MA",
          "long": -71.110061,
          "lat": 42.360686
        }
      ]
    },
    {
      "id": 1,
      "title": "HSBC Bank Armenia",
      "logoUrl": "/assets/banks/hsbc-logo.jpeg",
      "general_address": {
        "name": "9 Vazgen Sargsyan St, Yerevan 0010",
        "lat": "",
        "lng": ""
      },
      "open_hours": "9:30AM- 6PM",
      "phone_number": "060 655000",
      "web_link": "https://www.hsbc.am/en-am",
      "bank―branches": [
        {
          "id": 0,
          "branch_type": "atm",
          "address_name": "3 Komitas Ave",
          "lat": "",
          "lng": ""
        },
        {
          "id": 1,
          "branch_type": "bank",
          "address_name": "4/1 Marshal Baghramyan Ave, Yerevan 0019",
          "lat": "",
          "lng": ""
        },
        {
          "id": 2,
          "branch_type": "bank",
          "address_name": "3 Tsitsernakaberd Hwy, Yerevan 0082",
          "lat": "",
          "lng": ""
        }
      ]
    },
    {
      "id": 2,
      "title": "Central Bank",
      "logoUrl": "/assets/banks/ineco_logo.jpeg",
      "general_address": {
        "branch_type": "bank",
        "name": "6 Vazgen Sargsyan St, Yerevan 0010",
        "lat": "",
        "lng": ""
      },
      "open_hours": "9:30AM- 6PM",
      "phone_number": "060 616100",
      "web_link": ""
    },
    {
      "id": 3,
      "title": "Central Bank",
      "logoUrl": "/assets/banks/central_logo.jpeg",
      "general_address": {
        "branch_type": "bank",
        "name": "6 Vazgen Sargsyan St, Yerevan 0010",
        "lat": "",
        "lng": ""
      },
      "open_hours": "9:30AM- 6PM",
      "phone_number": "060 616100",
      "web_link": ""
    },
    {
      "id": 4,
      "title": "Ardshinbank",
      "logoUrl": "/assets/banks/ardshin-logo.jpeg",
      "general_address": {
        "branch_type": "bank",
        "name": "6 Vazgen Sargsyan St, Yerevan 0010",
        "lat": "",
        "lng": ""
      },
      "open_hours": "9:30AM- 6PM",
      "phone_number": "060 616100",
      "web_link": ""
    },
    {
      "id": 5,
      "title": "Evoca Bank",
      "logoUrl": "/assets/banks/evoca_logo.jpeg",
      "general_address": {
        "branch_type": "bank",
        "name": "6 Vazgen Sargsyan St, Yerevan 0010",
        "lat": "",
        "lng": ""
      },
      "open_hours": "9:30AM- 6PM",
      "phone_number": "060 616100",
      "web_link": ""
    },
    {
      "id": 6,
      "title": "ACBA Bank",
      "logoUrl": "/assets/banks/acba_logo.png",
      "general_address": {
        "branch_type": "bank",
        "name": "6 Vazgen Sargsyan St, Yerevan 0010",
        "lat": "",
        "lng": ""
      },
      "open_hours": "9:30AM- 6PM",
      "phone_number": "060 616100",
      "web_link": ""
    },
    {
      "id": 7,
      "title": "Mellat Bank",
      "logoUrl": "/assets/banks/mellat-logo.jpeg",
      "general_address": {
        "branch_type": "bank",
        "name": "6 Vazgen Sargsyan St, Yerevan 0010",
        "lat": "",
        "lng": ""
      },
      "open_hours": "9:30AM- 6PM",
      "phone_number": "060 616100",
      "web_link": ""
    },
    {
      "id": 8,
      "title": "Biblios Bank",
      "logoUrl": "/assets/banks/biblios_logo.jpeg",
      "general_address": {
        "branch_type": "bank",
        "name": "6 Vazgen Sargsyan St, Yerevan 0010",
        "lat": "",
        "lng": ""
      },
      "open_hours": "9:30AM- 6PM",
      "phone_number": "060 616100",
      "web_link": ""
    },
    {
      "id": 9,
      "title": "HSBc Bank",
      "logoUrl": "/assets/banks/idbank-logo.jpeg",
      "general_address": {
        "branch_type": "bank",
        "name": "6 Vazgen Sargsyan St, Yerevan 0010",
        "lat": "",
        "lng": ""
      },
      "open_hours": "9:30AM- 6PM",
      "phone_number": "060 616100",
      "web_link": ""
    },
    {
      "id": 10,
      "title": "Armeconom Bank",
      "logoUrl": "/assets/banks/armeconom_logo.jpeg",
      "general_address": {
        "branch_type": "bank",
        "name": "6 Vazgen Sargsyan St, Yerevan 0010",
        "lat": "",
        "lng": ""
      },
      "open_hours": "9:30AM- 6PM",
      "phone_number": "060 616100",
      "web_link": ""
    },
    {
      "id": 11,
      "title": "Converse Bank",
      "logoUrl": "/assets/banks/converse_logo.jpeg",
      "general_address": {
        "branch_type": "bank",
        "name": "6 Vazgen Sargsyan St, Yerevan 0010",
        "lat": "",
        "lng": ""
      },
      "open_hours": "9:30AM- 6PM",
      "phone_number": "060 616100",
      "web_link": ""
    }
  ]
}